[
    {
      "name": "Angoulême",
      "region": "Nouvelle-Aquitaine",
      "lat": "45.650002",
      "long": "0.160000"
    },
    {
      "name": "Boulogne-sur-Mer",
      "region": "Hauts-de-France",
      "lat": "50.726398",
      "long": "1.614700"
    },
    {
      "name": "Rosny-sous-Bois",
      "region": "Île-de-France",
      "lat": "48.866699",
      "long": "2.483300"
    },
    {
      "name": "Cayenne",
      "region": "French Guiana",
      "lat": "4.937200",
      "long": "-52.326000"
    },
    {
      "name": "Clichy",
      "region": "Hauts-de-Seine",
      "lat": "48.904400",
      "long": "2.306400"
    },
    {
      "name": "Antony",
      "region": "Hauts-de-Seine",
      "lat": "48.753899",
      "long": "2.297500"
    },
    {
      "name": "Valence",
      "region": "Auvergne-Rhône-Alpes",
      "lat": "44.933300",
      "long": "4.891700"
    },
    {
      "name": "Levallois-Perret",
      "region": "Île-de-France",
      "lat": "48.895000",
      "long": "2.287200"
    },
    {
      "name": "Issy-les-Moulineaux",
      "region": "Île-de-France",
      "lat": "48.823898",
      "long": "2.270000"
    },
    {
      "name": "Bourges",
      "region": "Centre-Val de Loire",
      "lat": "47.084400",
      "long": "2.396400"
    },
    {
      "name": "Ajaccio",
      "region": "Corsica",
      "lat": "41.926701",
      "long": "8.736900"
    },
    {
      "name": "Colmar",
      "region": " Grand Est",
      "lat": "48.081699",
      "long": "7.355600"
    },
    {
      "name": "Drancy",
      "region": "Île-de-France",
      "lat": "48.930000",
      "long": "2.450000"
    },
    {
      "name": "Mérignac",
      "region": "Nouvelle-Aquitaine",
      "lat": "44.838600",
      "long": "-0.643600"
    },
    {
      "name": "Saint-Nazaire",
      "region": "Pays de la Loire",
      "lat": "47.280602",
      "long": "-2.208600"
    },
    {
      "name": "Cannes",
      "region": "Provence-Alpes-Côte d'Azur",
      "lat": "43.551300",
      "long": "7.012800"
    },
    {
      "name": "Saint-Maur-des-Fossés",
      "region": " Île-de-France",
      "lat": "48.799400",
      "long": "2.499700"
    },
    {
      "name": "La Rochelle",
      "region": "Nouvelle-Aquitaine",
      "lat": "46.159100",
      "long": "-1.151700"
    },
    {
      "name": "Antibes",
      "region": "Provence-Alpes-Côte d'Azur",
      "lat": "43.580799",
      "long": "7.123900"
    },
    {
      "name": "Champigny-sur-Marne",
      "region": "Île-de-France",
      "lat": "48.817200",
      "long": "2.515600"
    },
    {
      "name": "Aubervilliers",
      "region": " Île-de-France",
      "lat": "48.913101",
      "long": "2.383100"
    },
    {
      "name": "Pau",
      "region": "Nouvelle-Aquitaine",
      "lat": "43.299999",
      "long": "-0.370000"
    },
    {
      "name": "Rueil-Malmaison",
      "region": "Île-de-France",
      "lat": "48.875999",
      "long": "2.181000"
    },
    {
      "name": "Aulnay-sous-Bois",
      "region": " Île-de-France",
      "lat": "48.938599",
      "long": "2.490600"
    },
    {
      "name": "Colombes",
      "region": "Île-de-France",
      "lat": "48.923599",
      "long": "2.252200"
    },
    {
      "name": "Courbevoie",
      "region": "Île-de-France",
      "lat": "48.897800",
      "long": "2.253100"
    },
    {
      "name": "Asnières-sur-Seine",
      "region": "Île-de-France",
      "lat": "48.910801",
      "long": "2.288900"
    },
    {
      "name": "Poitiers",
      "region": "Nouvelle-Aquitaine",
      "lat": "46.580002",
      "long": "0.340000"
    },
    {
      "name": "Créteil",
      "region": "Île-de-France",
      "lat": "48.791100",
      "long": "2.462800"
    },
    {
      "name": "Vitry-sur-Seine",
      "region": "Île-de-France",
      "lat": "48.787498",
      "long": "2.392800"
    },
    {
      "name": "Nanterre",
      "region": "Île-de-France",
      "lat": "48.898800",
      "long": "2.196900"
    },
    {
      "name": "Tourcoing",
      "region": "Hauts-de-France",
      "lat": "50.723907",
      "long": "3.161168"
    },
    {
      "name": "Roubaix",
      "region": "Hauts-de-France",
      "lat": "50.690102",
      "long": "3.181670"
    },
    {
      "name": "Nancy",
      "region": "Grand East",
      "lat": "48.693600",
      "long": "6.184600"
    },
    {
      "name": "Montreuil",
      "region": "Seine-Saint-Denis",
      "lat": "48.861099",
      "long": "2.443600"
    },
    {
      "name": "Saint-Paul",
      "region": "Réunion",
      "lat": "-21.009701",
      "long": "55.269699"
    },
    {
      "name": "Brest",
      "region": "48.389999",
      "lat": "-4.490000",
      "long": ""
    },
    {
      "name": "Caen",
      "region": "Normandy",
      "lat": "49.180000",
      "long": "-0.370000"
    },
    {
      "name": "Rouen",
      "region": "Normandy",
      "lat": "49.439999",
      "long": "1.100000"
    },
    {
      "name": "Orléans",
      "region": " Centre-Val de Loire",
      "lat": "47.902500",
      "long": "1.909000"
    },
    {
      "name": "Besançon",
      "region": "Bourgogne-Franche-Comté",
      "lat": "47.240002",
      "long": "6.020000"
    },
    {
      "name": "Metz",
      "region": "Grand Est",
      "lat": "49.120277",
      "long": "6.177778"
    },
    {
      "name": "Perpignan",
      "region": "Occitanie",
      "lat": "42.698601",
      "long": "2.895600"
    },
    {
      "name": "Tours",
      "region": "Centre-Val de Loire",
      "lat": "47.243599",
      "long": "0.689200"
    },
    {
      "name": "Limoges",
      "region": "Nouvelle-Aquitaine",
      "lat": "45.835300",
      "long": "1.262500"
    },
    {
      "name": "Clermont-Ferrand",
      "region": " Auvergne-Rhône-Alpes",
      "lat": "45.783100",
      "long": "3.082400"
    },
    {
      "name": "Aix-en-Provence",
      "region": "Provence-Alpes-Côte d'Azur",
      "lat": "43.526302",
      "long": "5.445429"
    },
    {
      "name": "Villeurbanne",
      "region": " Auvergne-Rhône-Alpes",
      "lat": "45.766701",
      "long": "4.880300"
    },
    {
      "name": "Angers",
      "region": "Anjou",
      "lat": "47.473614",
      "long": "-0.554167"
    },
    {
      "name": "Nîmes",
      "region": "Occitanie",
      "lat": "43.838001",
      "long": "4.361000"
    },
    {
      "name": "Dijon",
      "region": " Bourgogne-Franche-Comté",
      "lat": "47.316666",
      "long": "5.016667"
    },
    {
      "name": "Grenoble",
      "region": " Auvergne-Rhône-Alpes",
      "lat": "45.171547",
      "long": "5.722387"
    },
    {
      "name": "Saint-Étienne",
      "region": " Auvergne-Rhône-Alpes",
      "lat": "45.434700",
      "long": "4.390300"
    },
    {
      "name": "Toulon",
      "region": " Provence-Alpes-Côte d'Azur",
      "lat": "43.125832",
      "long": "5.930556"
    },
    {
      "name": "Le Havre",
      "region": " Normandy",
      "lat": "49.490002",
      "long": "0.100000"
    },
    {
      "name": "Reims",
      "region": " Grand Est",
      "lat": "49.262798",
      "long": "4.034700"
    },
    {
      "name": "Rennes",
      "region": "Bretagne",
      "lat": "48.114700",
      "long": "-1.679400"
    },
    {
      "name": "Montpellier",
      "region": "Occitan",
      "lat": "43.611900",
      "long": "3.877200"
    },
    {
      "name": "Strasbourg",
      "region": "Grand Est",
      "lat": "48.580002",
      "long": "7.750000"
    },
    {
      "name": "Nantes",
      "region": "Loire-Atlantique",
      "lat": "47.218102",
      "long": "-1.552800"
    },
    {
      "name": "Toulouse",
      "region": "Occitanie",
      "lat": "43.604500",
      "long": "1.444000"
    },
    {
      "name": "Marseille",
      "region": "Provence",
      "lat": "43.296398",
      "long": "5.370000"
    },
    {
      "name": "Vierzon",
      "region": "Centre-Val de Loire",
      "lat": "47.221996",
      "long": "2.067849"
    },
    {
      "name": "Le Mans",
      "region": "Pays de la Loire",
      "lat": "48.008224",
      "long": "0.209856"
    },
    {
      "name": "Avignon",
      "region": "Provence",
      "lat": "43.949318",
      "long": "4.805528"
    },
    {
      "name": "Dunkirk",
      "region": "Hauts-de-France",
      "lat": "51.050030",
      "long": "2.397766"
    },
    {
      "name": "Lille",
      "region": "Hauts-de-France",
      "lat": "50.629250",
      "long": "3.057256"
    },
    {
      "name": "Menton",
      "region": " Provence-Alpes-Côte d'Azur",
      "lat": "43.774483",
      "long": "7.497540"
    },
    {
      "name": "Bastia",
      "region": " Haute-Corse",
      "lat": "42.697285",
      "long": "9.450881"
    },
    {
      "name": "Le Cannet",
      "region": "Cannes",
      "lat": "43.552849",
      "long": "7.017369"
    },
    {
      "name": "Beauvais",
      "region": "Hauts-de-France",
      "lat": "49.431744",
      "long": "2.089773"
    },
    {
      "name": "Mulhouse",
      "region": "Grand Est",
      "lat": "47.750839",
      "long": "7.335888"
    },
    {
      "name": "Boulogne-Billancourt",
      "region": "Île-de-France",
      "lat": "48.843933",
      "long": "2.247391"
    },
    {
      "name": "Montauban",
      "region": "Occitanie",
      "lat": "44.022125",
      "long": "1.352960"
    },
    {
      "name": "Amiens",
      "region": "Hauts-de-France",
      "lat": "49.894066",
      "long": "2.295753"
    },
    {
      "name": "Laval",
      "region": "Mayenne",
      "lat": "48.101929",
      "long": "-0.766296"
    },
    {
      "name": "Versailles",
      "region": "Yvelines",
      "lat": "48.801407",
      "long": "2.130122"
    }
  ]